stop_id,stop_code,stop_name,stop_desc,stop_lat,stop_lon,zone_id,stop_url,location_type,parent_station,stop_timezone,wheelchair_boarding,platform_code
1000,1000,Masonic Transfer Center,,40.609272,-122.379985,25,,0,,America/Los_Angeles,0,
1001,1001,Northpoint Dr at Lake Blvd,@ Raley's,40.611583,-122.380729,25,,0,,America/Los_Angeles,0,
1002,1002,Northpoint Dr at Redwood Blvd,,40.613587,-122.376394,25,,0,,America/Los_Angeles,0,
1003,1003,Redwood Blvd at Marijean Way,,40.618458,-122.375980,25,,0,,America/Los_Angeles,0,
1004,1004,Redwood Blvd at Butternut Trail,,40.621499,-122.380982,25,,0,,America/Los_Angeles,0,
1005,1005,Redwood Blvd at Caterpillar Rd,@ Shasta County Opportunity Center,40.624653,-122.381013,25,,0,,America/Los_Angeles,0,
1006,1006,Caterpillar Rd at Redwood Blvd,,40.625617,-122.378071,25,,0,,America/Los_Angeles,0,
1007,1007,Caterpillar Rd at Prestige Way,,40.625464,-122.372774,25,,0,,America/Los_Angeles,0,
1008,1008,Caterpillar Rd at Grand Ave,,40.625221,-122.368395,25,,0,,America/Los_Angeles,0,
1009,1009,Twin View Blvd at Caterpillar Rd,,40.622427,-122.369251,25,,0,,America/Los_Angeles,0,
1010,1010,Twin View Blvd at Midway Dr,@ Shascade,40.620566,-122.370650,25,,0,,America/Los_Angeles,0,
1011,1011,Twin View Blvd at Valleyridge Dr,,40.617060,-122.373147,25,,0,,America/Los_Angeles,0,
1012,1012,Northpoint Dr at Redwood Blvd,,40.613658,-122.376186,25,,0,,America/Los_Angeles,0,
1013,1013,Northpoint Dr at Lake Blvd,@ Raley's,40.611688,-122.380889,25,,0,,America/Los_Angeles,0,
1014,1014,Lake Blvd at Clay St,,40.613816,-122.385440,25,,0,,America/Los_Angeles,0,
1015,1015,Lake Blvd at St. Marks St,@ Splish Splash Auto Bath,40.616573,-122.392481,25,,0,,America/Los_Angeles,0,
1017,1017,Lake Blvd at Keswick Dam Rd,,40.626020,-122.404913,25,,0,,America/Los_Angeles,0,
1018,1018,Lake Blvd at Oasis Rd,,40.627673,-122.405095,25,,0,,America/Los_Angeles,0,
1019,1019,Lake Blvd at Hiatt Dr,@ Buckeye School,40.631198,-122.405013,25,,0,,America/Los_Angeles,0,
1020,1020,Lake Blvd n/o Aarly Ln,@ Park Villa MHP,40.639056,-122.401491,25,,0,,America/Los_Angeles,0,
1021,1021,Lake Blvd n/o Dean Rd,@ Richard's Automotive,40.645397,-122.397208,24,,0,,America/Los_Angeles,0,
1022,1022,Lake Blvd at Pine Cone Dr,Across from Buckeye Grange,40.651782,-122.396781,24,,0,,America/Los_Angeles,0,
1023,1023,Lake Blvd at Newton Rd,@ Gateway Community Church,40.656870,-122.396503,24,,0,,America/Los_Angeles,0,
1024,1024,Lake Blvd at Pine Grove Ave,,40.662260,-122.396142,24,,0,,America/Los_Angeles,0,
1025,1025,Hill Blvd at Ranchera Rd,@ Rancho Pines,40.679056,-122.401571,24,,0,,America/Los_Angeles,0,
1026,1026,Hill Blvd at Pine Ave,@ Summit City Post Office,40.686743,-122.401580,24,,0,,America/Los_Angeles,0,
1027,1027,Shasta Dam Blvd at Lake Blvd,,40.691078,-122.402264,24,,0,,America/Los_Angeles,0,
1028,1028,Shasta Dam Blvd at Sacramento St,@ Margaret V. Polf Park,40.690611,-122.397679,24,,0,,America/Los_Angeles,0,
1029,1029,Shasta Dam Blvd at Shasta Park Dr,@ Twin Lake MHP,40.687518,-122.387326,24,,0,,America/Los_Angeles,0,
1030,1030,Shasta Dam Blvd at Givan St,,40.682371,-122.376623,24,,0,,America/Los_Angeles,0,
1031,1031,Shasta Dam Blvd at Montana Ave,,40.680791,-122.370853,24,,0,,America/Los_Angeles,0,
1032,1032,Shasta Dam Blvd at Hardenbrook Ave,,40.680526,-122.366933,24,,0,,America/Los_Angeles,0,
1033,1033,Shasta Dam Blvd at Median Ave,@ car wash,40.680372,-122.363588,24,,0,,America/Los_Angeles,0,
1034,1034,Shasta Dam Blvd at Grand Coulee Blvd,,40.680132,-122.358291,24,,0,,America/Los_Angeles,0,
1035,1035,Cascade Blvd at Shasta Dam Blvd,@ Rite Aide,40.679792,-122.351169,24,,0,,America/Los_Angeles,0,
1036,1036,Cascade Blvd at Morningstar Way,Across from Project City Post Office,40.675912,-122.353935,24,,0,,America/Los_Angeles,0,
1037,1037,Cascade Blvd at Cottage Ave,,40.664935,-122.357341,24,,0,,America/Los_Angeles,0,
1038,1038,Cascade Blvd at Mulberry St,@ Elegant Home Furnishing,40.659037,-122.358114,24,,0,,America/Los_Angeles,0,
1039,1039,Cascade Blvd at Autumn Harvest Way,,40.655245,-122.359732,24,,0,,America/Los_Angeles,0,
1040,1040,Cascade Blvd at Riddle Rd,@ Oasis Fun Center,40.652647,-122.362079,24,,0,,America/Los_Angeles,0,
1041,1041,Cascade Blvd at Oasis Rd,@ AM/PM Mini Mkt,40.642317,-122.367226,24,,0,,America/Los_Angeles,0,
1042,1042,Oasis Rd at Randolph Rd,,40.640514,-122.375167,24,,0,,America/Los_Angeles,0,
1043,1043,Oasis Rd at Beltline Rd,,40.633081,-122.391646,25,,0,,America/Los_Angeles,0,
1044,1044,3711 Oasis Rd,@ school,40.630639,-122.399482,25,,0,,America/Los_Angeles,0,
1045,1045,Lake Blvd at Keswick Dam Rd,,40.625938,-122.405265,25,,0,,America/Los_Angeles,0,
1046,1046,Lake Blvd at Tamarack Dr,,40.620575,-122.400736,25,,0,,America/Los_Angeles,0,
1047,1047,Lake Blvd at Panorama Dr,,40.618930,-122.397178,25,,0,,America/Los_Angeles,0,
1048,1048,Lake Blvd at St. Marks St,,40.616382,-122.392387,25,,0,,America/Los_Angeles,0,
1049,1049,Lake Blvd at Clay St,,40.613590,-122.385336,25,,0,,America/Los_Angeles,0,
1050,1050,Lake Blvd at Santa Rosa Way,,40.621951,-122.402383,25,,0,,America/Los_Angeles,1,
1051,1051,Lake Blvd at St. Nicholas Ave,,40.619549,-122.397986,25,,0,,America/Los_Angeles,0,
1100,1100,Browning St at Mission De Oro Dr,,40.593082,-122.357355,25,,0,,America/Los_Angeles,0,
1101,1101,Hilltop Dr at Palisades Ave,,40.595607,-122.362030,25,,0,,America/Los_Angeles,0,
1102,1102,Hilltop Dr at Sandpointe Dr,,40.597058,-122.367822,25,,0,,America/Los_Angeles,0,
1103,1103,Hilltop Dr at St. Thomas Pkwy,@ Hilltop Estates,40.599152,-122.370965,25,,0,,America/Los_Angeles,0,
1104,1104,Hilltop Dr at Mercedes Ln,"Previously, ""Hilltop/Peppertree""--changed to match SB name.",40.600545,-122.372311,25,,0,,America/Los_Angeles,0,
1105,1105,95 Hilltop Dr,@ Redding Hilltop Apts,40.605853,-122.375903,25,,0,,America/Los_Angeles,0,
1106,1106,Hilltop Dr at Lake Blvd,,40.608878,-122.375055,25,,0,,America/Los_Angeles,0,
1107,1107,Quartz Hill Rd at Delta St,Across from Aquatic Center,40.596140,-122.392829,25,,0,,America/Los_Angeles,0,
1108,1108,Quartz Hill Rd at Benton Dr,@ Lake Redding Golf Course,40.596495,-122.399681,25,,0,,America/Los_Angeles,0,
1109,1109,Benton Dr at Quartz Hill Rd,@ Elk's Lodge/Senior Center,40.594877,-122.401530,25,,0,,America/Los_Angeles,0,
1110,1110,Cypress Ave at Civic Center Dr,@ City Hall,40.574307,-122.380768,25,,0,,America/Los_Angeles,0,
1111,1111,Cypress Ave at Beverly Dr,@ Big O Tires,40.570929,-122.365518,25,,0,,America/Los_Angeles,0,
1112,1112,Hilltop Dr at Commerce St,,40.572833,-122.357884,25,,0,,America/Los_Angeles,0,
1113,1113,Hilltop Dr at Mistletoe Ln,@ Marie Calender's,40.578673,-122.357727,25,,0,,America/Los_Angeles,0,
1114,1114,Hilltop Dr at Presidio St,,40.582063,-122.357661,25,,0,,America/Los_Angeles,0,
1115,1115,Hilltop Dr at Rockaway Dr,@ Hilltop Town and Country,40.591011,-122.358174,25,,0,,America/Los_Angeles,0,
1116,1116,Browning St at Mission De Oro Dr,,40.592917,-122.356838,25,,0,,America/Los_Angeles,0,
1400,1400,Benton Dr at Quartz Hill Rd,@ Lake Redding Park (West Entrance),40.595037,-122.401176,25,,0,,America/Los_Angeles,0,
1401,1401,Benton Dr w/o Delta St,@ Heritage Plaza Apts,40.599588,-122.392513,25,,0,,America/Los_Angeles,0,
1402,1402,Benton Dr at Delta St,,40.599570,-122.389447,25,,0,,America/Los_Angeles,0,
1403,1403,Benton Dr at Loma St,,40.599551,-122.386094,25,,0,,America/Los_Angeles,0,
1404,1404,100 Hilltop Dr,@ Hilltop Garden Apts,40.606038,-122.376177,25,,0,,America/Los_Angeles,0,
1405,1405,Hilltop Dr at Mercedes Ln,,40.600197,-122.372180,25,,0,,America/Los_Angeles,0,
1406,1406,Hilltop Dr at Sandpointe Dr,,40.596644,-122.367095,25,,0,,America/Los_Angeles,0,
1407,1407,Hilltop Dr at Palisades Ave,,40.595351,-122.361950,25,,0,,America/Los_Angeles,0,
1408,1408,Hilltop Dr at Browning St,@ Best Buy,40.592636,-122.358552,25,,0,,America/Los_Angeles,0,
1409,1409,Hilltop Dr at Rockaway Dr,@ Bed Bath & Beyond,40.590677,-122.358402,25,,0,,America/Los_Angeles,0,
1410,1410,Hilltop Dr at E. Palisades Ave,@ Bank of America,40.589188,-122.358306,25,,0,,America/Los_Angeles,0,
1411,1411,Hilltop Dr at Presidio St,@ Red Lion,40.581679,-122.357907,25,,0,,America/Los_Angeles,0,
1412,1412,Hilltop Dr at Mistletoe Ln,@ Holiday Inn,40.579646,-122.357972,25,,0,,America/Los_Angeles,0,
1413,1413,Hilltop Dr at Industrial St,@ Cattlemans,40.575660,-122.358093,25,,0,,America/Los_Angeles,0,
1414,1414,Hilltop Dr at Commerce St,@ Trinity Lutheran Church,40.573224,-122.358141,25,,0,,America/Los_Angeles,0,
1415,1415,Cypress Ave at Rosemary Ave,@ Jeff's Cattle Co.,40.571179,-122.364599,25,,0,,America/Los_Angeles,0,
1416,1416,Cypress Ave at Athens Ave,,40.573724,-122.378299,25,,0,,America/Los_Angeles,0,
1417,1417,Cypress Ave at Civic Center Dr,,40.574857,-122.381528,25,,0,,America/Los_Angeles,0,
1418,1418,Cypress Ave at Pine St,@ Safeway,40.576504,-122.386040,25,,0,,America/Los_Angeles,0,
1419,1419,East St at Lincoln St,,40.579311,-122.385645,25,,0,,America/Los_Angeles,0,
1420,1420,East St at Placer St,@ Berean Bible Church,40.582873,-122.387234,25,,0,,America/Los_Angeles,0,
2000,2000,Downtown Transit Center,,40.583488,-122.392786,25,,0,,America/Los_Angeles,1,
2001,2001,Lincoln St at S. Market St,,40.578570,-122.389234,25,,0,,America/Los_Angeles,0,
2002,2002,S. Market St at California St,,40.571350,-122.388281,25,,0,,America/Los_Angeles,0,
2003,2003,S. Market St at Grange St,,40.568285,-122.388103,25,,0,,America/Los_Angeles,0,
2004,2004,Ellis St at Polk St,,40.564445,-122.384928,25,,0,,America/Los_Angeles,0,
2005,2005,S. Market St at Ellis St,@ RABA Office,40.564952,-122.387484,25,,0,,America/Los_Angeles,0,
2006,2006,Parkview Ave at Akard Ave,Across from City Hall,40.572079,-122.383044,25,,0,,America/Los_Angeles,0,
2007,2007,Parkview Ave at Freebridge St,,40.570832,-122.377301,25,,0,,America/Los_Angeles,0,
2008,2008,Park Marina Dr at Locust St,,40.574581,-122.372651,25,,0,,America/Los_Angeles,0,
2009,2009,Park Marina Dr at Olympus Ave,,40.581785,-122.371601,25,,0,,America/Los_Angeles,0,
2010,2010,Park Marina Dr at Sundial Bridge Dr,,40.585662,-122.376376,25,,0,,America/Los_Angeles,0,
2011,2011,Continental St at Butte St,,40.585986,-122.385655,25,,0,,America/Los_Angeles,0,
2012,2012,Trinity St at Liberty St,,40.589719,-122.388943,25,,0,,America/Los_Angeles,0,
2013,2013,Trinity St at California St,,40.588485,-122.393662,25,,0,,America/Los_Angeles,0,
2014,2014,Court St at Butte St,@ Shasta County Superior Court,40.583238,-122.395857,25,,0,,America/Los_Angeles,0,
2015,2015,Court St at Gold St,"Previously, ""Court/South""--changed to match NB name.",40.579124,-122.394162,25,,0,,America/Los_Angeles,0,
2016,2016,Court St at Sonoma St,,40.575379,-122.392723,25,,0,,America/Los_Angeles,0,
2017,2017,Rosaline Ave at West St,,40.573389,-122.394105,25,,0,,America/Los_Angeles,0,
2018,2018,Airpark Dr at Rosaline Ave,,40.571682,-122.398619,25,,0,,America/Los_Angeles,0,
2019,2019,2525 Airpark Dr,@ CH2M Hill,40.571515,-122.403735,25,,0,,America/Los_Angeles,0,
2020,2020,Airpark Dr at Sonoma St,,40.573638,-122.404935,25,,0,,America/Los_Angeles,0,
2021,2021,Airpark Dr at Gold St,@ St. Joseph's Church,40.576113,-122.404633,25,,0,,America/Los_Angeles,0,
2022,2022,Placer St at Mesa St,,40.577525,-122.410983,25,,0,,America/Los_Angeles,0,
2023,2023,Placer St at San Francisco St,,40.575474,-122.415059,25,,0,,America/Los_Angeles,0,
2024,2024,Buenaventura Blvd at Placer St,,40.574743,-122.419175,25,,0,,America/Los_Angeles,0,
2025,2025,Buenaventura Blvd at N. Cal Ore Dr,,40.578867,-122.424245,25,,0,,America/Los_Angeles,0,
2026,2026,Buenaventura Blvd at Eureka Way,@ Top's Fresh Market,40.583391,-122.426537,25,,0,,America/Los_Angeles,0,
2027,2027,Eureka Way at Whiskeytown Ct,,40.585627,-122.413065,25,,0,,America/Los_Angeles,0,
2028,2028,Eureka Way at Walnut Ave,Across from Shasta High,40.586164,-122.407332,25,,0,,America/Los_Angeles,0,
2029,2029,Orange Ave at Eureka Way,,40.585896,-122.404747,25,,0,,America/Los_Angeles,0,
2030,2030,Orange Ave at Shasta St,,40.583590,-122.403799,25,,0,,America/Los_Angeles,0,
2031,2031,Magnolia Ave at Tehama St,,40.583278,-122.401958,25,,0,,America/Los_Angeles,0,
2032,2032,11th St at Eureka Way,,40.586717,-122.400099,25,,0,,America/Los_Angeles,0,
2033,2033,Court St at 11th St,Across from YMCA,40.587389,-122.398204,25,,0,,America/Los_Angeles,0,
2034,2034,Court St at Shasta St,"Previously, ""Court/Eureka""--changed to match NB name.    Note: west side (Rite Aid)",40.585661,-122.396972,25,,0,,America/Los_Angeles,0,
2035,2035,Court St at Shasta St,@ Walgreens,40.585629,-122.396592,25,,0,,America/Los_Angeles,0,
2036,2036,Court St at 11th St,@ YMCA,40.587601,-122.398210,25,,0,,America/Los_Angeles,0,
2037,2037,11th St at Eureka Way,,40.586744,-122.400318,25,,0,,America/Los_Angeles,0,
2038,2038,Eureka Way at Magnolia Ave,@ University Prep School,40.586700,-122.403586,25,,0,,America/Los_Angeles,0,
2039,2039,Eureka Way at Pioneer Dr,@ Shasta High,40.586229,-122.408430,25,,0,,America/Los_Angeles,0,
2040,2040,Eureka Way at Overhill Dr,@ Patient's Hospital,40.585705,-122.415519,25,,0,,America/Los_Angeles,0,
2041,2041,Eureka Way at Sunset Dr,,40.584806,-122.422439,25,,0,,America/Los_Angeles,0,
2042,2042,Buenaventura Blvd at Eureka Way,,40.583321,-122.426966,25,,0,,America/Los_Angeles,0,
2043,2043,Buenaventura Blvd at Lakeside Dr,,40.580115,-122.425311,25,,0,,America/Los_Angeles,0,
2044,2044,Buenaventura Blvd at Rosita Dr,,40.575041,-122.420733,25,,0,,America/Los_Angeles,0,
2045,2045,Placer St at San Francisco St,@ Holiday Market,40.574983,-122.415433,25,,0,,America/Los_Angeles,0,
2046,2046,Placer St at Mesa St,,40.577335,-122.410984,25,,0,,America/Los_Angeles,0,
2047,2047,Airpark Dr at Gold St,@ Benton Airport,40.576006,-122.404834,25,,0,,America/Los_Angeles,0,
2048,2048,Airpark Dr at Sonoma St,,40.573854,-122.405095,25,,0,,America/Los_Angeles,0,
2049,2049,2510 Airpark Dr,@ Sequoia Medical Arts,40.571226,-122.401032,25,,0,,America/Los_Angeles,0,
2050,2050,Airpark Dr at Rosaline Ave,Near Mercy Medical Center,40.571533,-122.398787,25,,0,,America/Los_Angeles,0,
2051,2051,Rosaline Ave at West St,,40.573262,-122.394021,25,,0,,America/Los_Angeles,0,
2052,2052,Court St at Sonoma St,,40.575963,-122.392583,25,,0,,America/Los_Angeles,0,
2053,2053,Court St at Gold St,,40.578953,-122.393770,25,,0,,America/Los_Angeles,0,
3000,3000,SR 273 (frontage rd) at Happy Valley Rd,"At Happy Valley Rd, Routes 3 and 8 ALWAYS only use NB station (movement: enter near Midway Market, turn right on frontage road, serve this station, turn right on Happy Valley Rd).       AC uses the same movement for NB travel (i.e., uses this NB station).",40.494198,-122.365795,26,,0,,America/Los_Angeles,0,
3001,3001,SR 273 at Canyon Rd,,40.506197,-122.379165,25,,0,,America/Los_Angeles,0,
3002,3002,Westside Rd at Clear Creek Rd,@ Park-and-ride  No existing pole/flag,40.516155,-122.381565,25,,0,,America/Los_Angeles,0,
3003,3003,SR 273 at Westwood Ave,,40.523126,-122.382336,26,,0,,America/Los_Angeles,0,
3004,3004,Cedars Rd at Concord Ln,,40.531079,-122.386952,25,,0,,America/Los_Angeles,0,
3005,3005,Cedars Rd at Branstetter Ln,,40.536814,-122.389020,25,,0,,America/Los_Angeles,0,
3006,3006,Cedars Rd at Kenyon Dr,,40.545565,-122.389561,25,,0,,America/Los_Angeles,0,
3007,3007,Cedars Rd at Riviera Dr,,40.547656,-122.389897,25,,0,,America/Los_Angeles,0,
3008,3008,El Reno Ln at Westside Rd,,40.549473,-122.387950,25,,0,,America/Los_Angeles,0,
3009,3009,Railroad Ave at Buenaventura Blvd,,40.554991,-122.389642,25,,0,,America/Los_Angeles,0,
3010,3010,Railroad Ave at Grandview Ave,,40.564347,-122.389645,25,,0,,America/Los_Angeles,0,
3011,3011,West St at Linden Ave,,40.570283,-122.393132,25,,0,,America/Los_Angeles,0,
3012,3012,Sheridan St at Court St,@ MLK Jr Park/Memorial Center,40.572818,-122.392568,25,,0,,America/Los_Angeles,0,
3013,3013,Railroad Ave at Sheridan St,,40.573153,-122.391365,25,,0,,America/Los_Angeles,0,
3014,3014,Railroad Ave at Logan St,,40.570774,-122.391014,25,,0,,America/Los_Angeles,0,
3015,3015,Railroad Ave at Laurel Ave,,40.567148,-122.390312,25,,0,,America/Los_Angeles,0,
3016,3016,Railroad Ave at Grandview Ave,,40.564687,-122.389882,25,,0,,America/Los_Angeles,0,
3017,3017,Canyon Creek Rd at Buenaventura Blvd,,40.554032,-122.390179,25,,0,,America/Los_Angeles,0,
3018,3018,Westside Rd at El Reno Ln,,40.549316,-122.387538,25,,0,,America/Los_Angeles,0,
3019,3019,Westside Rd at Kenyon Dr,,40.544836,-122.386726,25,,0,,America/Los_Angeles,0,
3020,3020,Breslauer Way at Eastside Rd,,40.550463,-122.386188,25,,0,,America/Los_Angeles,0,
3021,3021,Breslauer Way at Veterans Ln,@ Shasta County Social Service Offices,40.550030,-122.382336,25,,0,,America/Los_Angeles,0,
3022,3022,Radio Ln at Cerro Ln,,40.547886,-122.380136,25,,0,,America/Los_Angeles,0,
3023,3023,E. Bonnyview Rd at N. Bonnyview Rd,@ Bonnyview Market,40.541931,-122.376122,25,,0,,America/Los_Angeles,0,
3024,3024,E. Bonnyview Rd at Nicolet Ln,,40.539253,-122.375675,25,,0,,America/Los_Angeles,0,
3025,3025,E. Bonnyview Rd at Willowbrae Ave,,40.536574,-122.375293,25,,0,,America/Los_Angeles,0,
3026,3026,S. Bonnyview Rd at E. Bonnyview Rd,,40.531585,-122.374959,25,,0,,America/Los_Angeles,0,
3027,3027,Eastside Rd at S. Bonnyview Rd,@ Win River Mini Mart,40.529468,-122.380325,25,,0,,America/Los_Angeles,0,
3028,3028,Eastside Rd at North Dr,Across from Redding Collision Center,40.526137,-122.382412,25,,0,,America/Los_Angeles,0,
3029,3029,Eastside Rd at Star Dr,,40.522847,-122.381852,25,,0,,America/Los_Angeles,0,
3030,3030,Eastside Rd at Waverly Ave,@ Waverly Manor,40.516680,-122.380773,25,,0,,America/Los_Angeles,0,
3031,3031,Eastside Rd at Girvan Rd,,40.513246,-122.380186,25,,0,,America/Los_Angeles,0,
3032,3032,SR 273 at Canyon Rd,@ Win-River,40.506063,-122.379476,25,,0,,America/Los_Angeles,0,
4000,4000,Canby Transfer Center,Transfer Point,40.589312,-122.353633,25,,0,,America/Los_Angeles,0,
4001,4001,Old Alturas Rd at Bradford Way,@ Costco,40.586793,-122.344354,25,,0,,America/Los_Angeles,0,
4002,4002,Dana Dr at Bradford Way,Across from Walmart,40.585853,-122.344149,25,,0,,America/Los_Angeles,0,
4003,4003,Dana Dr at Friendly Rd,@ Target,40.585845,-122.348198,25,,0,,America/Los_Angeles,0,
4004,4004,Churn Creek Rd at Presidio St,@ Shasta Center,40.582372,-122.354439,25,,0,,America/Los_Angeles,0,
4005,4005,Churn Creek Rd at Mistletoe Ln,@ Arco AM/PM,40.578140,-122.353726,25,,0,,America/Los_Angeles,0,
4006,4006,Churn Creek Rd at Wall St,@ Walgreens,40.571818,-122.353302,25,,0,,America/Los_Angeles,0,
4007,4007,Churn Creek Rd at Cypress Ave,@ Rite Aid,40.570464,-122.353212,25,,0,,America/Los_Angeles,0,
4008,4008,Churn Creek Rd at Maraglia St,,40.568840,-122.353196,25,,0,,America/Los_Angeles,0,
4009,4009,Maraglia St e/o Hilltop Dr,@ K-Mart,40.567468,-122.357448,25,,0,,America/Los_Angeles,0,
4010,4010,Churn Creek Rd at Parsons Dr,@ El Mariachi's Mexican Restaurant,40.565005,-122.353284,25,,0,,America/Los_Angeles,0,
4011,4011,Churn Creek Rd at Hartnell Ave,@ Graham Park,40.563230,-122.353263,25,,0,,America/Los_Angeles,0,
4012,4012,Churn Creek Rd at Shirley Ln,Across from Enterprise High,40.559335,-122.353178,25,,0,,America/Los_Angeles,0,
4013,4013,Churn Creek Rd at Echo Rd,@ Marquis Shasta,40.555830,-122.353120,25,,0,,America/Los_Angeles,0,
4014,4014,Churn Creek Rd at Loma Vista Dr,,40.549447,-122.353023,25,,0,,America/Los_Angeles,0,
4015,4015,Loma Vista Dr at Traverse St,Across from Lassen View Elementary,40.549313,-122.360554,25,,0,,America/Los_Angeles,0,
4017,4017,Bechelli Ln at Layton Rd,@ Bechelli Oaks Apartments,40.554712,-122.362473,25,,0,,America/Los_Angeles,0,
4018,4018,Bechelli Ln at 3rd St,@ Bike Shop,40.558623,-122.362540,25,,0,,America/Los_Angeles,0,
4019,4019,Bechelli Ln at Wilshire Dr,,40.561657,-122.362535,25,,0,,America/Los_Angeles,0,
4020,4020,Bechelli Ln at Hartnell Ave,@ Arco AM/PM,40.564065,-122.362524,25,,0,,America/Los_Angeles,0,
4021,4021,Bechelli Ln at Beagle Ln,@ Mission Square,40.566869,-122.362539,25,,0,,America/Los_Angeles,0,
4022,4022,Bechelli Ln at Cypress Ave,@ Red Lion Inn,40.571742,-122.362663,25,,0,,America/Los_Angeles,0,
4023,4023,Bechelli Ln at Knollcrest Dr,,40.572791,-122.362894,25,,0,,America/Los_Angeles,0,
4024,4024,Bechelli Ln at Leila Ave,,40.569289,-122.362877,25,,0,,America/Los_Angeles,0,
4025,4025,Bechelli Ln at Beagle Ln,n/o PremierWest Bank,40.566138,-122.362822,25,,0,,America/Los_Angeles,0,
4026,4026,Bechelli Ln at 3rd St,@ Country Club Shopping Center,40.559965,-122.362829,25,,0,,America/Los_Angeles,0,
4027,4027,Bechelli Ln at Layton Rd,,40.556388,-122.362739,25,,0,,America/Los_Angeles,0,
4028,4028,Loma Vista Dr at Traverse St,@ Lassen View Elementary,40.549175,-122.357762,25,,0,,America/Los_Angeles,0,
4029,4029,Churn Creek Rd at Loma Vista Dr,,40.549631,-122.352727,25,,0,,America/Los_Angeles,0,
4030,4030,Churn Creek Rd at Echo Rd,,40.555116,-122.352844,25,,0,,America/Los_Angeles,0,
4031,4031,Churn Creek Rd at Shirley Ln,@ Enterprise High,40.558859,-122.352878,25,,0,,America/Los_Angeles,0,
4032,4032,Churn Creek Rd at Hartnell Ave,,40.562872,-122.352963,25,,0,,America/Los_Angeles,0,
4033,4033,Churn Creek Rd at Parsons Dr,,40.565104,-122.352950,25,,0,,America/Los_Angeles,0,
4034,4034,Churn Creek Rd at Cypress Ave,@ Safeway,40.571482,-122.352883,25,,0,,America/Los_Angeles,0,
4035,4035,Churn Creek Rd at Industrial St,@ Grocery Outlet,40.575670,-122.352894,25,,0,,America/Los_Angeles,0,
4036,4036,Churn Creek Rd at Mistletoe Ln,@ Redding Bank of Commerce,40.579210,-122.353771,25,,0,,America/Los_Angeles,0,
4037,4037,Churn Creek Rd at Presidio St,,40.582294,-122.354142,25,,0,,America/Los_Angeles,0,
4038,4038,Dana Dr at Churn Creek Rd,@ Jack in the Box,40.585647,-122.350319,25,,0,,America/Los_Angeles,0,
4039,4039,Dana Dr at Bradford Way,@ Walmart,40.585556,-122.343251,25,,0,,America/Los_Angeles,0,
4040,4040,Victor Ave at Dana Dr,,40.585833,-122.338712,25,,0,,America/Los_Angeles,0,
4041,4041,Old Alturas Rd at Bradford Way,@ Winco,40.587053,-122.344013,25,,0,,America/Los_Angeles,0,
4042,4042,Old Alturas Rd at Friendly Rd,@ Cinemark,40.588317,-122.347395,25,,0,,America/Los_Angeles,0,
5000,5000,East St at Butte St,@ Shasta Regional Med Ctr,40.584920,-122.388090,25,,0,,America/Los_Angeles,0,
5001,5001,Trinity St at Liberty St,,40.589619,-122.388484,25,,0,,America/Los_Angeles,0,
5002,5002,Placer St at Continental St,,40.583676,-122.384478,25,,0,,America/Los_Angeles,0,
5003,5003,Sequoia St at Sacramento St,,40.583333,-122.381191,25,,0,,America/Los_Angeles,0,
5004,5004,South St at Athens Ave,,40.578293,-122.376062,25,,0,,America/Los_Angeles,0,
5005,5005,Athens Ave at Cypress Ave,,40.574256,-122.376511,25,,0,,America/Los_Angeles,0,
5006,5006,Hartnell Ave at Parkview Ave,,40.570120,-122.369635,25,,0,,America/Los_Angeles,0,
5007,5007,Hartnell Ave at Shotwick Trail,Across from VA Clinic,40.564919,-122.368284,25,,0,,America/Los_Angeles,0,
5008,5008,Hartnell Ave at Bechelli Ln,,40.563735,-122.363583,25,,0,,America/Los_Angeles,0,
5009,5009,Hartnell Ave at Northwoods Way,@ Rother Elementary,40.563696,-122.355835,25,,0,,America/Los_Angeles,0,
5010,5010,Hartnell Ave at Arcade Way,,40.563684,-122.351158,25,,0,,America/Los_Angeles,0,
5011,5011,Hartnell Ave at Reservoir Ln,,40.563632,-122.345033,25,,0,,America/Los_Angeles,0,
5012,5012,Hartnell Ave at Middleton Ln,@ Bakery Store/Outlet,40.563628,-122.342260,25,,0,,America/Los_Angeles,0,
5013,5013,Hartnell Ave at Victor Ave,,40.563609,-122.339083,25,,0,,America/Los_Angeles,0,
5014,5014,Hartnell Ave at Churn Ct,,40.563570,-122.333544,25,,0,,America/Los_Angeles,0,
5015,5015,Hartnell Ave at Shasta View Dr,@ Holiday Market,40.563623,-122.326023,25,,0,,America/Los_Angeles,0,
5016,5016,Shasta View Dr at Leonard St,,40.558010,-122.322976,25,,0,,America/Los_Angeles,0,
5017,5017,Venus Way at Scorpius Way,,40.553321,-122.327043,25,,0,,America/Los_Angeles,0,
5018,5018,Galaxy Way at Meteor St,,40.551215,-122.330994,25,,0,,America/Los_Angeles,0,
5019,5019,Victor Ave at Galaxy Way,,40.551608,-122.336481,25,,0,,America/Los_Angeles,0,
5020,5020,Victor Ave at Marlene Ave,,40.558667,-122.338426,25,,0,,America/Los_Angeles,0,
5021,5021,Victor Ave at Bramble Pl,,40.562415,-122.339442,25,,0,,America/Los_Angeles,0,
5022,5022,Hartnell Ave at Robert Ct,,40.563825,-122.340344,25,,0,,America/Los_Angeles,0,
5023,5023,Hartnell Ave at Middletown Ln,,40.563847,-122.342265,25,,0,,America/Los_Angeles,0,
5024,5024,Hartnell Ave at Irwin Rd,,40.563859,-122.346844,25,,0,,America/Los_Angeles,0,
5025,5025,Hartnell Ave at Arcade Way,@ Rita's Cafe,40.563884,-122.349569,25,,0,,America/Los_Angeles,0,
5026,5026,Hartnell Ave at Northwoods Way,@ Parsons Jr. High,40.563932,-122.355420,25,,0,,America/Los_Angeles,0,
5027,5027,Hartnell Ave at Bechelli Ln,@ US District Court,40.563841,-122.363588,25,,0,,America/Los_Angeles,0,
5028,5028,Hartnell Ave at Shotwick Trail,@ VA Clinic,40.565129,-122.368114,25,,0,,America/Los_Angeles,0,
5029,5029,Hartnell Ave at Parkview Ave,@ Round Table Pizza,40.569271,-122.369332,25,,0,,America/Los_Angeles,0,
5030,5030,Athens Ave at Cypress Ave,,40.573473,-122.376461,25,,0,,America/Los_Angeles,0,
5031,5031,South St at Athens Ave,,40.578599,-122.375659,25,,0,,America/Los_Angeles,0,
5032,5032,Sequoia St at Lowe St,,40.580937,-122.379899,25,,0,,America/Los_Angeles,0,
5033,5033,Sequoia St at Placer St,@ Sequoia Middle,40.584302,-122.381357,25,,0,,America/Los_Angeles,0,
5034,5034,Placer St at Continental St,,40.583808,-122.384604,25,,0,,America/Los_Angeles,0,
5035,5035,Placer St at East St,,40.583131,-122.387169,25,,0,,America/Los_Angeles,0,
6000,6000,Victor Ave at Dana Dr,,40.585243,-122.338959,25,,0,,America/Los_Angeles,0,
6001,6001,Victor Ave at Azoulay Ct,,40.581704,-122.338970,25,,0,,America/Los_Angeles,0,
6002,6002,Victor Ave at Mistletoe Ln,,40.578113,-122.338765,25,,0,,America/Los_Angeles,0,
6003,6003,Victor Ave at Cascade Ln,,40.572554,-122.338819,25,,0,,America/Los_Angeles,0,
6004,6004,Victor Ave at Cypress Ave,,40.570592,-122.338936,25,,0,,America/Los_Angeles,0,
6005,6005,Victor Ave at Hartnell Ave,,40.563195,-122.339630,25,,0,,America/Los_Angeles,0,
6006,6006,Victor Ave at Marlene Ave,,40.557595,-122.338056,25,,0,,America/Los_Angeles,0,
6007,6007,Victor Ave at Vega St,,40.553438,-122.337099,25,,0,,America/Los_Angeles,0,
6008,6008,Victor Ave at El Vista St,@ Enterprise Park,40.545086,-122.336525,25,,0,,America/Los_Angeles,0,
6009,6009,El Vista St at Alta Campo Dr,,40.544986,-122.332635,25,,0,,America/Los_Angeles,0,
6010,6010,Victor Ave at Hartnell Ave,,40.563908,-122.339341,25,,0,,America/Los_Angeles,0,
6011,6011,Victor Ave at Cypress Ave,,40.571136,-122.338675,25,,0,,America/Los_Angeles,0,
6012,6012,Victor Ave at Lazelle Ct,,40.575252,-122.338539,25,,0,,America/Los_Angeles,0,
6013,6013,Churn Creek Rd at Old Alturas Rd,@ Vallero Gas,40.588695,-122.350916,25,,0,,America/Los_Angeles,0,
6014,6014,Churn Creek Rd at Browning St,,40.592421,-122.351256,25,,0,,America/Los_Angeles,0,
6015,6015,Churn Creek Rd at Whistling Dr,,40.598402,-122.350581,25,,0,,America/Los_Angeles,0,
6016,6016,Churn Creek Rd at Palacio Dr,,40.605479,-122.345456,25,,0,,America/Los_Angeles,0,
6017,6017,Churn Creek Rd at Golden Gate Trail,,40.608041,-122.345893,25,,0,,America/Los_Angeles,0,
6018,6018,Churn Creek Rd at Rose Ln,@ Fire Station No. 8,40.611792,-122.348258,25,,0,,America/Los_Angeles,0,
6019,6019,College View Dr at Churn Creek Rd,,40.613220,-122.348676,25,,0,,America/Los_Angeles,0,
6020,6020,College View Dr at Tidmore Ln,,40.614241,-122.344571,25,,0,,America/Los_Angeles,0,
6021,6021,College View Dr at Shasta View Dr,,40.616907,-122.334485,25,,0,,America/Los_Angeles,0,
6022,6022,College View Dr at Mercy Oaks Dr,@ Simpson University/Shasta Senior Nutrition Program,40.617953,-122.329609,25,,0,,America/Los_Angeles,0,
6023,6023,College View Dr at Old Oregon Trail,,40.619163,-122.318802,25,,0,,America/Los_Angeles,0,
6024,6024,Shasta College,"w/o 300 Building, e/o Admin Parking Lot",40.625119,-122.317612,25,,0,,America/Los_Angeles,0,
6025,6025,Collyer Dr at Twin Tower Dr,,40.617837,-122.335009,25,,0,,America/Los_Angeles,0,
6026,6026,1720 Collyer Dr,@ Lavender Hills Assisted Living,40.617022,-122.339286,25,,0,,America/Los_Angeles,0,
6027,6027,1520 Collyer Dr,@ Sierra Oaks Senior Living,40.616649,-122.341620,25,,0,,America/Los_Angeles,0,
6028,6028,Collyer Dr at Ridgewood Rd,,40.616383,-122.344483,25,,0,,America/Los_Angeles,0,
6029,6029,Collyer Dr at Hawley Rd,,40.616520,-122.349890,25,,0,,America/Los_Angeles,0,
6030,6030,College View Dr at Bethel,College View Dr at Bethel Ln  @ Bethel,40.611432,-122.355205,25,,0,,America/Los_Angeles,0,
6031,6031,Churn Creek Rd at Golden Gate Trail,,40.607650,-122.346157,25,,0,,America/Los_Angeles,0,
6033,6033,Canby Rd at Churn Creek Rd,,40.598131,-122.352435,25,,0,,America/Los_Angeles,0,
6034,6034,Canby Rd at Browning St,@ Redding Pilgrim House,40.595366,-122.353796,25,,0,,America/Los_Angeles,0,
7000,7000,Trinity St at California St,,40.588382,-122.393477,25,,0,,America/Los_Angeles,0,
7001,7001,N. Market St at Quartz Hill Rd,,40.594636,-122.388809,25,,0,,America/Los_Angeles,0,
7002,7002,N. Market St at Benton Dr,,40.598945,-122.384429,25,,0,,America/Los_Angeles,0,
7003,7003,Lake Blvd at N. Market St,,40.609430,-122.375721,25,,0,,America/Los_Angeles,0,
7004,7004,Lake Blvd at Hilltop Dr,@ Walgreen's,40.610160,-122.373464,25,,0,,America/Los_Angeles,0,
7005,7005,Lake Blvd at Black Marble Way,,40.610979,-122.369708,25,,0,,America/Los_Angeles,0,
7006,7006,Lake Blvd at N. Boulder Dr,,40.611027,-122.370640,25,,0,,America/Los_Angeles,0,
7007,7007,Twin View Blvd at Midway Dr,,40.619526,-122.371089,25,,0,,America/Los_Angeles,0,
7008,7008,Twin View Blvd at Caterpillar Rd,@ Meeks,40.622225,-122.369109,25,,0,,America/Los_Angeles,0,
7009,7009,Caterpillar Rd at Grand Ave,,40.625501,-122.368850,25,,0,,America/Los_Angeles,0,
7010,7010,Caterpillar Rd at Prestige Way,,40.625623,-122.371785,25,,0,,America/Los_Angeles,0,
7011,7011,Redwood Blvd at Caterpillar Rd,Across from Shasta Cnty Opp Ctr,40.624695,-122.381216,25,,0,,America/Los_Angeles,0,
7012,7012,Redwood Blvd at Butternut Trail,,40.621332,-122.380969,25,,0,,America/Los_Angeles,0,
7013,7013,Redwood Blvd at Marijean Way,,40.618012,-122.375458,25,,0,,America/Los_Angeles,0,
7014,7014,Redwood Blvd at Hardwood Blvd,@ Redwood MHP,40.614767,-122.375613,25,,0,,America/Los_Angeles,0,
7015,7015,N. Market St at Benton Dr,@ Olde West Gun & Loan,40.598408,-122.385495,25,,0,,America/Los_Angeles,0,
7016,7016,N. Market St at Quartz Hill Rd,,40.595112,-122.388878,25,,0,,America/Los_Angeles,0,
8001,8001,SR 273 at Westwood Ave,,40.522465,-122.382610,25,,0,,America/Los_Angeles,0,
8002,8002,SR 273 (frontage rd) at Happy Valley Rd,,40.494132,-122.365944,26,,0,,America/Los_Angeles,0,
8003,8003,Shasta College,Note distinct fare zone/structure.,40.625138,-122.317648,878,,0,,America/Los_Angeles,0,
8004,8004,Bella Vista (@ My-T Fine Foods),21919 SR 299,40.638178,-122.242527,878,,0,,America/Los_Angeles,0,
8005,8005,Round Mountain (@ Round Mountain Store/Cafe),,40.803703,-121.939862,877,,0,,America/Los_Angeles,0,
8006,8006,Montgomery Creek (@ Montgomery Creek Library),,40.842069,-121.924014,877,,0,,America/Los_Angeles,0,
8007,8007,Burney (@ Burney Sporting Goods),37427 SR 299,40.888921,-121.653580,876,,0,,America/Los_Angeles,0,
8008,8008,Redding Civic Auditorium,Redding Civic Auditorium - Turtle Bay - Sundial Bridge,40.588937,-122.380286,25,,0,,America/Los_Angeles,0,
8009,8009,Shasta View Dr at Tarmac Rd,,40.575413,-122.324562,25,,0,,America/Los_Angeles,0,
8010,8010,Shasta View Dr at Inspiration Way,@ Redding School of the Arts,40.596613,-122.324805,25,,0,,America/Los_Angeles,0,
8011,8011,Shasta View Dr at Hemingway St,,40.603248,-122.327704,25,,0,,America/Los_Angeles,0,
8012,8012,Shasta View Dr at Simpson Blvd,@ Simpson University,40.612681,-122.333895,25,,0,,America/Los_Angeles,0,
8013,8013,J.F. Kennedy Memorial Rd at SR 299,,40.614371,-122.520742,,,0,,America/Los_Angeles,0,
8014,8014,SR 299 at 2nd St,,40.596904,-122.488764,25,,0,,America/Los_Angeles,0,
8015,8015,S. Shore Dr at Brandy Creek Beach,Whiskeytown NRA,40.616486,-122.572093,25,,0,,America/Los_Angeles,0,
8016,8016,SR 299 at Buell Alley,,40.597365,-122.489859,25,,0,,America/Los_Angeles,0,
8017,8017,S. Shore Dr at Brandy Creek Marina,,40.621176,-122.570970,,,0,,America/Los_Angeles,0,
8018,8018,S. Shore Dr at Paige Bar Rd,,40.599789,-122.535610,,,0,,America/Los_Angeles,0,
9000,9000,5000 Rhonda Rd,"South of Pleasant Hill Dr., east of Walmart.",40.432540,-122.287635,26,,0,,America/Los_Angeles,0,
9001,9001,SR 273 at Barney Rd,,40.438970,-122.291358,26,,0,,America/Los_Angeles,0,
9002,9002,SR 273 at Bruce St,,40.444608,-122.295249,26,,0,,America/Los_Angeles,0,
9003,9003,North St at Freeman St,,40.451497,-122.300035,26,,0,,America/Los_Angeles,0,
9004,9004,North St at Ventura St,@ Vittles,40.455030,-122.295983,26,,0,,America/Los_Angeles,0,
9005,9005,North St at Tremonto Rd,,40.458196,-122.294846,26,,0,,America/Los_Angeles,0,
9006,9006,North St at Sharon Ave,,40.461494,-122.295396,26,,0,,America/Los_Angeles,0,
9007,9007,Stingy Ln at Daisy St,,40.465174,-122.295269,26,,0,,America/Los_Angeles,0,
9008,9008,Stingy Ln at Bay St,,40.460590,-122.288714,26,,0,,America/Los_Angeles,0,
9009,9009,Stingy Ln at Silo Ct,,40.458637,-122.285869,26,,0,,America/Los_Angeles,0,
9010,9010,Balls Ferry Rd at Childress Dr,,40.453872,-122.289217,26,,0,,America/Los_Angeles,0,
9011,9011,Balls Ferry Rd at Ventura St,@ Allstate Insurance Building,40.451008,-122.292464,26,,0,,America/Los_Angeles,0,
9012,9012,South St at E. Center St,,40.448835,-122.297516,26,,0,,America/Los_Angeles,0,
9013,9013,Silver St at Howard St,@ Anderson City Hall,40.447703,-122.300405,26,,0,,America/Los_Angeles,0,
9014,9014,Silver St at North St,,40.449457,-122.302872,26,,0,,America/Los_Angeles,0,
9015,9015,Silver St at School St,,40.450955,-122.305114,26,,0,,America/Los_Angeles,0,
9016,9016,Silver St at Diamond St,,40.452358,-122.307244,26,,0,,America/Los_Angeles,0,
9017,9017,SR 273 at Alexander Ave,,40.460137,-122.315034,26,,0,,America/Los_Angeles,0,
9018,9018,Parallel Rd at Hill St,,40.470422,-122.331053,26,,0,,America/Los_Angeles,0,
9019,9019,SR 273 at Latona Rd,@ Jolly's Giant Flea Mart,40.481766,-122.346918,26,,0,,America/Los_Angeles,0,
9020,9020,SR 273 at Overland Dr,,40.482143,-122.348179,26,,0,,America/Los_Angeles,0,
9021,9021,Parallel Rd at Hill St,,40.470320,-122.331177,26,,0,,America/Los_Angeles,0,
9022,9022,SR 273 at 3rd St,,40.459231,-122.314514,26,,0,,America/Los_Angeles,0,
9023,9023,W. Center St at Way St,@ Anderson Branch Library,40.451550,-122.303701,26,,0,,America/Los_Angeles,0,
9024,9024,SR 273 at Bruce St,,40.444455,-122.295675,26,,0,,America/Los_Angeles,0,
9025,9025,SR 273 at Pinion Ave,@ Tower Mart,40.438268,-122.291431,26,,0,,America/Los_Angeles,0,
rlvk,,Redding Regional Airport,,40.505951,-122.299891,,,,,,,
uwab,,Fast Track at Churn Creek Rd,,40.538581,-122.349287,,,,,,,
u5cy,,Veterans Home of California,,40.508134,-122.311821,,,,,,,
cw4k,,Turtle Bay Exploration Park (Sheraton),,40.590750,-122.378986,,,,,,,
f8jv,,VA Clinic at Knighton Rd,,40.506515,-122.313246,,,,,,,
viki,,Shasta View Dr at Viking Wy,,40.579225,-122.324235,,,0,,America/Los_Angeles,0,
atri,,Shasta View Dr at Atrium Wy,,40.584200,-122.324383,,,0,,America/Los_Angeles,0,
olda,,Shasta View Dr at Old Alturas Rd,,40.588230,-122.324645,,,0,,America/Los_Angeles,0,
update,,NB SR 273 at Shasta Gateway,,40.435049,-122.288607,,,0,,America/Los_Angeles,0,
pleas,,SB Rhonda Rd at Pleasant Hills Dr,,40.433322,-122.289297,,,0,,America/Los_Angeles,0,
6032,6032,Churn Creek Rd at Palacio Dr,,40.605049,-122.345538,25,,0,,America/Los_Angeles,0,
pala,,Shasta View Dr at Palacio Dr,Eastbound,40.606844,-122.329918,,,0,,America/Los_Angeles,0,
pala-west,,Shasta View Dr at Palacio Dr,Westbound,40.606885,-122.330225,,,0,,America/Los_Angeles,0,
hemi,hemi,Shasta View Dr at Hemingway St,Westbound,40.603819,-122.328873,25,,0,,America/Los_Angeles,0,
olda-west,,Shasta View Dr at Old Alturas Rd,Westbound,40.587318,-122.324879,,,0,,America/Los_Angeles,0,
atri-west,,Shasta View Dr at Atrium Wy,Westbound,40.583523,-122.324649,,,0,,America/Los_Angeles,0,
volt,,Shasta View Dr at Voltaire Wy,Westbound,40.581180,-122.324563,,,0,,America/Los_Angeles,0,
8009-west,8009,Shasta View Dr at Tarmac Rd,Westbound,40.576183,-122.324742,25,,0,,America/Los_Angeles,0,
8010-west,8010,Shasta View Dr at Inspiration Way,"@ Redding School of the Arts, Westbound",40.596133,-122.325119,25,,0,,America/Los_Angeles,0,
